{
  "country": "Turkey",
  "cities": [
    { "id": 1, "name": "Adana", "lat": 37.0000, "lon": 35.3213 },
    { "id": 2, "name": "Adıyaman", "lat": 37.7648, "lon": 38.2786 },
    { "id": 3, "name": "Afyonkarahisar", "lat": 38.7507, "lon": 30.5567 },
    { "id": 4, "name": "Ağrı", "lat": 39.7191, "lon": 43.0503 },
    { "id": 5, "name": "Amasya", "lat": 40.6499, "lon": 35.8353 },
    { "id": 6, "name": "Ankara", "lat": 39.9334, "lon": 32.8597 },
    { "id": 7, "name": "Antalya", "lat": 36.8969, "lon": 30.7133 },
    { "id": 8, "name": "Artvin", "lat": 41.1828, "lon": 41.8183 },
    { "id": 9, "name": "Aydın", "lat": 37.8560, "lon": 27.8416 },
    { "id": 10, "name": "Balıkesir", "lat": 39.6484, "lon": 27.8826 },
    { "id": 11, "name": "Bilecik", "lat": 40.0567, "lon": 30.0665 },
    { "id": 12, "name": "Bingöl", "lat": 38.8853, "lon": 40.4980 },
    { "id": 13, "name": "Bitlis", "lat": 38.3938, "lon": 42.1232 },
    { "id": 14, "name": "Bolu", "lat": 40.7392, "lon": 31.6116 },
    { "id": 15, "name": "Burdur", "lat": 37.7203, "lon": 30.2908 },
    { "id": 16, "name": "Bursa", "lat": 40.1950, "lon": 29.0600 },
    { "id": 17, "name": "Çanakkale", "lat": 40.1553, "lon": 26.4142 },
    { "id": 18, "name": "Çankırı", "lat": 40.6013, "lon": 33.6134 },
    { "id": 19, "name": "Çorum", "lat": 40.5506, "lon": 34.9556 },
    { "id": 20, "name": "Denizli", "lat": 37.7765, "lon": 29.0864 },
    { "id": 21, "name": "Diyarbakır", "lat": 37.9144, "lon": 40.2306 },
    { "id": 22, "name": "Edirne", "lat": 41.6771, "lon": 26.5557 },
    { "id": 23, "name": "Elazığ", "lat": 38.6810, "lon": 39.2264 },
    { "id": 24, "name": "Erzincan", "lat": 39.7500, "lon": 39.5000 },
    { "id": 25, "name": "Erzurum", "lat": 39.9000, "lon": 41.2700 },
    { "id": 26, "name": "Eskişehir", "lat": 39.7767, "lon": 30.5206 },
    { "id": 27, "name": "Gaziantep", "lat": 37.0662, "lon": 37.3833 },
    { "id": 28, "name": "Giresun", "lat": 40.9128, "lon": 38.3895 },
    { "id": 29, "name": "Gümüşhane", "lat": 40.4386, "lon": 39.5086 },
    { "id": 30, "name": "Hakkari", "lat": 37.5833, "lon": 43.7333 },
    { "id": 31, "name": "Hatay", "lat": 36.4018, "lon": 36.3498 },
    { "id": 32, "name": "Isparta", "lat": 37.7648, "lon": 30.5566 },
    { "id": 33, "name": "Mersin", "lat": 36.8000, "lon": 34.6333 },
    { "id": 34, "name": "İstanbul", "lat": 41.0082, "lon": 28.9784 },
    { "id": 35, "name": "İzmir", "lat": 38.4237, "lon": 27.1428 },
    { "id": 36, "name": "Kars", "lat": 40.6167, "lon": 43.1000 },
    { "id": 37, "name": "Kastamonu", "lat": 41.3887, "lon": 33.7827 },
    { "id": 38, "name": "Kayseri", "lat": 38.7312, "lon": 35.4787 },
    { "id": 39, "name": "Kırklareli", "lat": 41.7333, "lon": 27.2167 },
    { "id": 40, "name": "Kırşehir", "lat": 39.1425, "lon": 34.1709 },
    { "id": 41, "name": "Kocaeli", "lat": 40.8533, "lon": 29.8815 },
    { "id": 42, "name": "Konya", "lat": 37.8746, "lon": 32.4932 },
    { "id": 43, "name": "Kütahya", "lat": 39.4167, "lon": 29.9833 },
    { "id": 44, "name": "Malatya", "lat": 38.3552, "lon": 38.3095 },
    { "id": 45, "name": "Manisa", "lat": 38.6191, "lon": 27.4289 },
    { "id": 46, "name": "Kahramanmaraş", "lat": 37.5753, "lon": 36.9228 },
    { "id": 47, "name": "Mardin", "lat": 37.3122, "lon": 40.7350 },
    { "id": 48, "name": "Muğla", "lat": 37.2153, "lon": 28.3636 },
    { "id": 49, "name": "Muş", "lat": 38.9462, "lon": 41.7539 },
    { "id": 50, "name": "Nevşehir", "lat": 38.6244, "lon": 34.7239 },
    { "id": 51, "name": "Niğde", "lat": 37.9667, "lon": 34.6833 },
    { "id": 52, "name": "Ordu", "lat": 40.9839, "lon": 37.8764 },
    { "id": 53, "name": "Rize", "lat": 41.0201, "lon": 40.5234 },
    { "id": 54, "name": "Sakarya", "lat": 40.7569, "lon": 30.3789 },
    { "id": 55, "name": "Samsun", "lat": 41.2867, "lon": 36.3300 },
    { "id": 56, "name": "Siirt", "lat": 37.9333, "lon": 41.9500 },
    { "id": 57, "name": "Sinop", "lat": 42.0231, "lon": 35.1531 },
    { "id": 58, "name": "Sivas", "lat": 39.7477, "lon": 37.0179 },
    { "id": 59, "name": "Tekirdağ", "lat": 40.9833, "lon": 27.5167 },
    { "id": 60, "name": "Tokat", "lat": 40.3167, "lon": 36.5500 },
    { "id": 61, "name": "Trabzon", "lat": 41.0015, "lon": 39.7178 },
    { "id": 62, "name": "Tunceli", "lat": 39.3074, "lon": 39.4388 },
    { "id": 63, "name": "Şanlıurfa", "lat": 37.1591, "lon": 38.7969 },
    { "id": 64, "name": "Uşak", "lat": 38.6823, "lon": 29.4082 },
    { "id": 65, "name": "Van", "lat": 38.4891, "lon": 43.4089 },
    { "id": 66, "name": "Yozgat", "lat": 39.8181, "lon": 34.8147 },
    { "id": 67, "name": "Zonguldak", "lat": 41.4564, "lon": 31.7987 },
    { "id": 68, "name": "Aksaray", "lat": 38.3687, "lon": 34.0370 },
    { "id": 69, "name": "Bayburt", "lat": 40.2552, "lon": 40.2249 },
    { "id": 70, "name": "Karaman", "lat": 37.1759, "lon": 33.2287 },
    { "id": 71, "name": "Kırıkkale", "lat": 39.8468, "lon": 33.5153 },
    { "id": 72, "name": "Batman", "lat": 37.8812, "lon": 41.1351 },
    { "id": 73, "name": "Şırnak", "lat": 37.4187, "lon": 42.4918 },
    { "id": 74, "name": "Bartın", "lat": 41.6358, "lon": 32.3375 },
    { "id": 75, "name": "Ardahan", "lat": 41.1105, "lon": 42.7022 },
    { "id": 76, "name": "Iğdır", "lat": 39.9167, "lon": 44.0333 },
    { "id": 77, "name": "Yalova", "lat": 40.6500, "lon": 29.2667 },
    { "id": 78, "name": "Karabük", "lat": 41.2061, "lon": 32.6204 },
    { "id": 79, "name": "Kilis", "lat": 36.7184, "lon": 37.1212 },
    { "id": 80, "name": "Osmaniye", "lat": 37.0742, "lon": 36.2478 },
    { "id": 81, "name": "Düzce", "lat": 40.8438, "lon": 31.1565 }
  ]
}
